Location_ID,Location_String,Latitude,Longitude,X,Y,Z
1,"Ashland, OR",42.1972487,-122.7153995,-0.400397481736759,-0.623314604626282,0.67168501567211
2,"Yuba City, CA",39.1404477,-121.6169108,-0.406598945808958,-0.660480275585777,0.631223496734065
3,"Oceanside, NY",40.6387141,-73.6401296,0.213739657379602,-0.728107459649709,0.651287099569536
4,"Auckland, New Zealand",-36.8534665,174.7655514,-0.796835097470333,0.0730007595016763,-0.599770553254845
5,"Columbia, MO",38.951883,-92.3337366,-0.031666990982472,-0.77702918124209,0.628667521970368
6,"Goodyear, AZ",33.4001695,-112.45722351601,-0.318905890362926,-0.771535656191842,0.550483209840639
7,"Anchorage, AK",61.2163129,-149.8948523,-0.416552309028164,-0.241516931035323,0.876443806451152
8,"Online, OH, USA",40.2253569,-82.6881395,0.0971719044429825,-0.757301523805924,0.645795651137532
9,"Raleigh, NC",35.7803977,-78.6390989,0.159809539431056,-0.795367856093375,0.58468015581193
10,"Charlotte, VA",37.0416273,-78.6523968,0.157054091446261,-0.78259450307845,0.602395099674113
11,"Killeen, TX",31.1171441,-97.727796,-0.115118815529052,-0.848337345366027,0.516789518826098
12,"Petaluma, CA",38.270022,-122.606122413043,-0.423059907973019,-0.661364629548513,0.61936834036623
13,"Batavia, IL",-6.1753942,106.827183,-0.287806134458673,0.951627976974652,-0.107572405416478
14,"Calgary, AB, Canada",51.02532675,-114.049868485806,-0.25632792998364,-0.574376019638269,0.777424067272683
15,"Iowa City, IA",41.6612561,-91.5299106,-0.0199463521808221,-0.746821526703297,0.664725319426931
16,"Fitchburg, MS",42.5724193,-71.8111281611782,0.229874686211438,-0.699625768979307,0.676521553255554
17,"Scranton, PA",41.4086874,-75.6621294,0.185732256497111,-0.726649650563844,0.661425592362387
18,"Online, MO",38.7604815,-92.5617875,-0.0348531681727828,-0.778990664926332,0.626066131192186
19,"Paoli, PA",40.040739,-75.4928444948136,0.191780293377449,-0.741177504249839,0.643332127494065
20,"Scottsdale, AZ",33.5091215,-111.8992365,-0.31098613680666,-0.773632104100094,0.552069733113246
21,PA,8.3096067,-81.3066246,0.149559727431006,-0.978133552880278,0.144522111320613
22,"Asheville, NC",35.6009498,-82.5540161,0.105369648731962,-0.806234700269161,0.582136448960207
24,"Ottawa, Ontario, Canada",45.421106,-75.690308,0.173481362819013,-0.68011381049648,0.712284649228394
25,"Arcadia, CA",43.82840345,-66.05815643305,0.29275763927599,-0.659344737160727,0.692500889691848
26,"Toronto, Quebec, Canada",43.6606651,-79.4707243494618,0.132200142304289,-0.711259735702455,0.69038591435747
27,"Saskatchewan, Canada",55.5321257,-106.1412243,-0.157335766428041,-0.543634193892743,0.82444364260578
28,"Adelaide, Australia",-34.9281805,138.5999312,-0.614993189910467,0.54219074285984,-0.572549189782715
29,"Lanarkshire, Scotland",55.5752966,-3.833333,0.56405793121728,-0.0377942992280299,0.824869832868644
30,"Reno, NV",39.52927,-119.8136744,-0.383475514238423,-0.669215590063835,0.636472327752817
31,GA,-0.8999695,11.6899699,0.979137494732353,0.202590876676567,-0.0157067850520683
32,"Brisbane, CA",43.7445681,-80.0767202,0.124495805554112,-0.711621530025765,0.691444569291872
33,"Mason, IA",43.1535728,-93.2010367,-0.0407362556246122,-0.728384846222059,0.683956192509253
34,"Lancaster, OH",39.7136754,-82.5993294,0.0990845639053351,-0.762838977949328,0.638951440186901
35,"Lubbock, TX",33.5778631,-101.8551665,-0.171157957808972,-0.815364250823636,0.553069699004993
36,"Venice Beach, CA",33.9796472,-118.468563095478,-0.395277390842688,-0.728963916167945,0.558898374674404
37,"Perth, Western Australia, Australia",-31.9527121,115.8604796,-0.370093281439394,0.763516888335406,-0.529219164675696
38,"Tarrytown, NY",41.0762077,-73.8587461,0.209571285751951,-0.724119500449707,0.657062268934034
39,"Chatsworth, CA",44.4560807,-80.8978758,0.112917383343344,-0.70479945860197,0.700362326009375
40,"Cotati, CA",38.3266798,-122.7068441,-0.423890732274028,-0.660104215425839,0.620144395983085
41,"Stanford, CT",37.4248398,-122.1677058,-0.422805511798227,-0.672243757583751,0.607720190204932
42,"Seminole, FL",28.7225829,-81.2353683,0.133626979459065,-0.866716268447405,0.480569183749075
43,"Cerritos, CA",33.8644291,-118.0539323,-0.390519601547525,-0.732795671416091,0.55722970556226
44,"Madrid, Spain",40.4167047,-3.7035825,0.759759298399889,-0.0491791337775481,0.648341901542541
45,"Cape Coral, FL",26.6059432,-81.9806771,0.124734347919071,-0.885364375086281,0.44785183462534
46,"Commerce, CA",46.7934356,-71.2568567,0.219989715701557,-0.648323692578808,0.728890193805986
47,"Culver City, CA",34.0211224,-118.3964665,-0.394167299236523,-0.729104639047858,0.559498494664176
48,"West Valley City, UT",40.696629,-111.9867271,-0.283853639134027,-0.703031262665236,0.652053797830895
49,"Hanover, NH",43.703622,-72.288666,0.219928866907192,-0.688657851647105,0.690928112661305
50,"Online, CA",61.0666922,-107.9917071,-0.149433116103759,-0.460134441091783,0.875183432163037
51,"Grenada, MS",33.7690049,-89.8084192,0.00277957651534959,-0.831280637925022,0.55584599932478
52,"Columbia, MD",39.2156213,-76.8582049,0.176153531054855,-0.754481149324053,0.632240562453535
53,"Santa Monica, CA",46.724362,-75.559685,0.170946265346921,-0.66385220467886,0.728064299843742
54,"Nelson, BC, Canada",49.494891,-117.290039,-0.297799808393349,-0.577222759338919,0.760348052027523
55,"San Carlos, CA",37.504936,-122.2618236,-0.423455313777062,-0.670829265822734,0.608829773705017
56,"Alief, TX",29.7110641,-95.5963337,-0.0846989324525612,-0.864396070197136,0.495626396259466
57,KS,38.27312,-98.5821872,-0.117153938461061,-0.776276515058979,0.619410790082759
58,"Hillsborough, CA",45.9222528,-64.6453656,0.297884151762881,-0.6286266494376,0.718396525426846
59,"Providence, RI",41.8677428,-71.5814834,0.235288213924536,-0.706540020992753,0.667413406460915
60,VA,13.2904027,108.4265113,-0.307622395005654,0.92332039784487,0.22988672213631
61,"Online, BC, Canada",55.001251,-125.002441,-0.328999685770462,-0.469817643293323,0.81916456760119
62,"Online, IA",41.9216734,-93.3122705,-0.0429901077826471,-0.742815894691058,0.668114060043014
63,"Blue Springs, MO",39.017316,-94.282265,-0.0580153314314715,-0.774786700196224,0.629555232301299
64,"Upperlake, CA",33.6999343,-118.0122374,-0.390735983794904,-0.734489013481573,0.554843473461385
65,"Merced, CA",37.3029568,-120.4843269,-0.403529937840708,-0.685486611317854,0.606029450579953
66,"Mission Viejo, CA",33.5965685,-117.659405,-0.386669596418829,-0.737766647607907,0.553341663787112
67,CT,41.8523094,1.5745043,0.744585932609661,0.0204665851304501,0.667212790534549
68,"Cohasset, MA",42.2417675,-70.8036544,0.243420229954813,-0.699151263079109,0.672260442822298
70,"Chandler, AZ",33.3067132,-111.8408489,-0.310921230536615,-0.775754083008741,0.549120743641018
71,"Clarkston, MI",42.7086411,-83.4396633,0.0839519063282957,-0.730000827339211,0.678270498774576
72,"Chelsea, MA",42.3917638,-71.0328284,0.240048948783548,-0.698452537834236,0.674196228542424
73,"Corvallis, OR",44.5645659,-123.2620435,-0.390762308934771,-0.595738435907077,0.70171257213973
75,Canada,61.0666922,-107.9917071,-0.149433116103759,-0.460134441091783,0.875183432163037
76,"Portland, ME",19.3636733,-99.2489301,-0.151632463467165,-0.931167839209196,0.331563042640996
78,"Boston, MS",42.3306533,-71.0914404,0.239567214883308,-0.699377618114506,0.673408120558057
79,"East Bay, CA",46.0193462,-60.372133,0.343294485386739,-0.603623808972821,0.719574314122035
80,"Richardson, TX",32.9481789,-96.7297206,-0.0983380516384895,-0.833380987948463,0.543880277750526
81,"Tarzana, CA",34.1727967,-118.553369,-0.39545312088836,-0.726718974846597,0.561690627282998
82,Germany,51.0834196,10.4234469,0.617821574578422,0.113652842302726,0.77806139437833
83,"St. Louis, MO",38.6272733,-90.1978889,-0.00269819409989123,-0.781218752126586,0.624251536701656
84,"Yakima, WA",46.601557,-120.5108421,-0.348825266891287,-0.591931624698586,0.726593342152207
85,"Palm Springs, CA",33.8246269,-116.540303,-0.371199604217975,-0.743201576170705,0.556652738254109
86,"Laguna Beach, CA",53.4453765,-113.402912433547,-0.236564652316421,-0.546592426516493,0.8032894151856
87,"Seal Beach, CA",33.7423967,-118.1055926,-0.391738385615342,-0.733488478376561,0.555459889932949
88,"Brookline, MA",42.3317642,-71.1211635,0.239200144615166,-0.699489448949763,0.673422454053947
89,"San Antonio, TX",29.4246002,-98.4951405,-0.128669371965033,-0.861446659678461,0.49127776791439
90,"London, England, United Kingdom",51.5073219,-0.1276474,0.622413076426851,-0.00138665610370536,0.782687702393306
92,"Overland Park, KS",38.9742502,-94.6851702,-0.063500802703421,-0.774830981134037,0.628971063508399
93,"Edina, MN",44.8897027,-93.3501222,-0.0414009169193067,-0.707255972306614,0.705744255176666
96,"Fremont, CA",49.2850624,-123.135817450772,-0.35656167205036,-0.546217805852264,0.757964301662413
97,"Grants Pass, OR",42.4393707,-123.3272489,-0.405467651790782,-0.616626232458686,0.674809656714451
98,"Pacific Grove, CA",36.6174432,-121.9155906,-0.424328992630294,-0.681299735908668,0.59646925810484
99,"Lenoir, NC",35.9140196,-81.5389849,0.119165525417634,-0.801083373429359,0.586570546794652
100,CA,61.0666922,-107.9917071,-0.149433116103759,-0.460134441091783,0.875183432163037
101,"Midland, TX",31.9973662,-102.0779482,-0.177452564514298,-0.829299388648787,0.529880280189825
102,"Glendale, CA",51.034096,-114.1522951,-0.257305633371854,-0.573808292043843,0.77752032450402
103,"Grover Beach, CA",35.1209452,-120.6218376,-0.416633366090297,-0.703876127048879,0.575304298637633
104,"Portland, OR",45.5202471,-122.6741949,-0.378257666231744,-0.589780986629246,0.713498090920745
105,"Brisbane, Queensland, Australia",-27.4689682,153.0234991,-0.790720291824031,0.402483699649679,-0.461268134184474
106,"Grapevine, TX",32.9342919,-97.0780654,-0.1034192027639,-0.832898510526721,0.543676870633696
107,"Online, Mexico",19.4326009,-99.1333416,-0.149690195464447,-0.931077355755891,0.332697765217073
108,"Hanover, NE",52.3744779,9.7385532,0.601700670353241,0.103267329245317,0.792017778845273
109,"Emeryville, CA",42.2967472,-82.7583081,0.0932391051676129,-0.733769136538744,0.672970522036982
111,"Apopka, FL",28.7414145,-81.5344294037456,0.129078007044763,-0.867245662082346,0.480857390186223
112,"Shakopee, MN",44.7980186,-93.5268986,-0.043652251597103,-0.708251150498302,0.704609671199831
113,"Pittsburgh, PA",40.4416941,-79.9900861,0.132287490390444,-0.749481281239755,0.648673900320811
114,"Hookset, NH",43.0847155,-71.471557,0.232085514441796,-0.692487861132539,0.683078967741189
115,"Hackensack, NJ",40.8859326,-74.0434736,0.207834285198058,-0.726885397035693,0.654555214991429
116,"Trinidad, CA",41.059291,-124.143125,-0.423208609352657,-0.624064197665441,0.656839668535617
117,"Online, TX",31.8160381,-99.5120986,-0.140425372094868,-0.838061778216257,0.527193674815075
118,"Edmonton, AL, Canada",53.535411,-113.507996,-0.237062943315339,-0.544999437776736,0.804224330476087
119,"Redondo Beach, CA",33.8455911,-118.3886766,-0.394881275912581,-0.730662747218981,0.5569566659625
120,TX,31.8160381,-99.5120986,-0.140425372094868,-0.838061778216257,0.527193674815075
121,"Belmont, CA",45.0391892,-64.0768808969879,0.308910638101791,-0.63552359303935,0.707590263046276
122,"Provo, UT",40.2338438,-111.6585337,-0.281756664287404,-0.709517500584574,0.645908738517954
123,"Munich, Bayern, Germany",48.1371079,11.5753822,0.653777489530929,0.133908531971948,0.744743915213649
124,South Africa,-28.8166236,24.991639,0.794130881935401,0.370168237913397,-0.482007902421311
125,Australia,-24.7761086,134.755,-0.639268059533553,0.644758664030606,-0.419073517676403
126,"Cheshire, England, United Kingdom",53.2141028,-2.47177008607121,0.598269335045042,-0.0258256774362282,0.800878790535574
127,"Bangor, ME",29.065897,-110.9712006,-0.312825441040285,-0.816164088097025,0.485815216660309
128,"Lowell, MA",42.6334247,-71.3161718,0.235678947679078,-0.696931131346196,0.677305272223237
129,"Clemson, SC",34.6850749,-82.8364111,0.102542091939736,-0.8158736151178,0.569065342061204
130,"Atlanta, GA",33.7490987,-84.3901849,0.0812798247313919,-0.827496126521087,0.555557153391288
131,"Washington, Washington D.C.",38.9044038,-77.047803410814,0.174423069782505,-0.758395585911646,0.628022872192868
132,"Billerica, MA",42.5584264,-71.268947,0.236537796497574,-0.697575658705789,0.676341682294724
133,"Alta Vista, CA",45.3960442,-75.6360068313473,0.174203127688104,-0.680250847265245,0.711977566429307
134,"Towson, MD",39.4018552,-76.602388,0.179043293723591,-0.751684050442971,0.634755533479037
135,"Beverly Hills, CA",43.26083105,-79.8964650794964,0.127753548740053,-0.71694812468109,0.685320667498501
136,"Elizabeth Town, NJ",41.049031,-74.0159628,0.207669350495251,-0.72499135551974,0.656704633215367
137,"Milford, DE",38.9130342,-75.4280735,0.19576627418161,-0.75307078096167,0.628140083703334
138,India,22.3511148,78.6677428,0.181735447321709,0.906839720100714,0.380281407952633
139,"Surprise, AZ",39.8158094,46.7521006,0.526273251287584,0.559486041694811,0.640321664577943
140,"Online, Cambodia",13.5066394,104.869423,-0.249519738738253,0.939782177936912,0.233558039921874
141,"New York, NY, USA",40.7308619,-73.9871558,0.209036585565548,-0.728380909173844,0.652506672031928
142,"Online, WI",44.4308975,-89.6884637,0.00388275550038823,-0.714084717193589,0.700048527518111
143,"Hartford, CT",41.7645491,-72.6908673,0.221921938549109,-0.712109510808959,0.666071090654767
144,"Stockholm, Sweden",59.3251172,18.0710935,0.485000642893601,0.158251859973656,0.860075999669606
145,"Powder Springs, GA",33.8595492,-84.683824,0.0769385143229029,-0.826833921764725,0.557158981649717
146,"Warsaw, Poland",52.2319237,21.0067265,0.571761155850385,0.219555563252067,0.790496385384335
147,"Oklahoma City, OK",35.4729886,-97.5170536,-0.106539437931158,-0.807390306003408,0.580319086311175
148,"Cornelius, NC",35.4817982,-80.8589501,0.129364141172646,-0.803958541803072,0.580444297103988
149,"Lemon Grove, CA",32.7425516,-117.0314172,-0.382266528344025,-0.749224405486279,0.540865132479012
150,"Kelso, WA",46.1420334,-122.9060318,-0.376412168538867,-0.581710336223979,0.721059612033605
151,"Brooklyn, NY",40.6501038,-73.9495823,0.209768273778214,-0.729126800105803,0.65143793310152
152,"New Orleans, LA",29.9499323,-90.0701156,-0.00106033093698216,-0.866461347395131,0.499243036174285
153,"Tucson, AZ",32.2218917,-110.9262353,-0.302158455448479,-0.790188904605356,0.533199552550054
154,"Online, Portugal",40.033265,-7.8896263,0.758423533379332,-0.105100004956758,0.643232254302051
155,"Greensboro, NC",36.0726355,-79.7919754,0.143243906665174,-0.795476903170162,0.588810393697417
157,"Tempe, AZ",33.4144139,-111.9094474,-0.311464087799447,-0.774422252389231,0.550690745351372
158,"Cabo San Lucas, Mexico",22.8938107,-109.9111325,-0.313735279312891,-0.866158277173409,0.38902443804786
159,"Hong Kong, Online",22.2793278,114.1628131,-0.37877298926547,0.844273230816284,0.379122321065291
160,"Virginia Beach, VA",36.8529841,-75.9774183,0.193886343758155,-0.776332049105732,0.599763816210506
161,"Unknown, China",35.000074,104.999927,-0.212010950052929,0.791239669800424,0.573577494321186
162,"Salinas, CA",36.6744117,-121.6550372,-0.420914945759657,-0.682717161087897,0.597267014317908
163,"Dublin, Unknown, Ireland",53.3497645,-6.2602732,0.593368933018134,-0.0650921369998075,0.802294411690447
164,"Royal Oak, MI",42.4894801,-83.1446485,0.0880185743932354,-0.732129433369316,0.675454827028505
165,"Hamilton, ON",43.255205,-79.868202,0.12811902930824,-0.716951259604692,0.685249155913642
167,"Bay Area, CA",37.7884969,-122.3558473,-0.422937835428148,-0.667579943094595,0.612748404274683
168,"Sacramento, CA, USA",38.5815719,-121.4943996,-0.408382996175324,-0.666566720280812,0.623628203218029
169,"Bethesda, MD",38.9848265,-77.0946459,0.173605930378257,-0.757677934329428,0.629114559335413
170,"Sarasota, FL",27.3364347,-82.5306527,0.115478534832814,-0.880787554309756,0.45921453827803
171,"McMinnville, OR",45.2109843,-123.1975851,-0.385732438914258,-0.589515180595399,0.709705810471376
172,"Chestnut Hill, MA",42.330653,-71.1622757,0.23870238616589,-0.699673266045267,0.673408116687243
173,"Cologne, Germany",50.938361,6.959974,0.625512491616258,0.0763597528051188,0.776468486793612
174,"Vancouver, BC, Canada",49.2608724,-123.1139529,-0.356527995763263,-0.54662181914215,0.757688837897693
175,"Bergen, Norway",60.3943034,5.3258117,0.491895585180029,0.0458552886923418,0.869445815321081
176,Pakistan,30.3308401,71.247499,0.277477747585659,0.817305875176998,0.504992283105346
177,"Athens, GA",33.9597677,-83.376398,0.0956717205331991,-0.823893858026688,0.558610626998912
178,"New Brunswick, NJ",40.4862174,-74.4518173,0.20386765774074,-0.732729685316781,0.649265112556401
179,"MB, Canada",55.001251,-97.001038,-0.0699095174095019,-0.569282065906108,0.81916456760119
180,"Miami Beach, FL",25.7929198,-80.1353006,0.154253742865223,-0.887060599204677,0.435119841136565
181,"Arleta, CA",34.2413266,-118.4322047,-0.393595284647689,-0.726962311888227,0.5626797925972
182,"Beaverton, OR",45.4871723,-122.8037804,-0.379813678226503,-0.589270073041493,0.713093507788234
183,"Middleton, CT",53.5484755,-2.1972661,0.593705620103694,-0.0227794985549805,0.804359826882765
184,"Mountain View, CA",45.5073725,-73.6050824,0.197810191440936,-0.67232155285434,0.713340632327663
185,"Columbia, SC",34.0007493,-81.0343313,0.12919824757236,-0.818901083152009,0.559203745370771
186,"Orange, CA",45.843838,-74.041871,0.191524087992023,-0.669770783082744,0.717443810934035
187,"Cincinnati, OH",39.1014537,-84.5124602,0.0742112288770139,-0.772473872451336,0.630695496962361
188,"San Mateo, CA",37.496904,-122.3330573,-0.424334646962569,-0.670374390445263,0.608718558959964
189,"Oceanside, CA",33.1958696,-117.3794834,-0.384830867853291,-0.74306512304814,0.547502900500752
190,"Toronto, ON, Canada",43.653963,-79.387207,0.133251643358446,-0.711145648976464,0.690301286022355
191,"Hamburg, Germany",53.550341,10.000654,0.585089136757753,0.103173887058065,0.804379171210566
192,MS,32.9715645,-89.7348497,0.00388239070128752,-0.838931781869389,0.544222741542371
193,"Antwerpen, Belgium",51.2211097,4.3997081,0.624470968902671,0.0480472220530232,0.779568774035201
194,"Kansas City, KS",39.1134562,-94.626497,-0.0625838658601463,-0.773370145847693,0.630858048411461
195,"Renton, WA",47.4799078,-122.2034496,-0.360178175790024,-0.57187687627623,0.737040378856621
196,Colombia,2.8894434,-73.783892,0.278906034455403,-0.958994454597015,0.050408927746341
197,Italy,42.6384261,12.674297,0.717717605399456,0.161406360689994,0.677369489738416
198,"Los Angeles, CA",34.0536834,-118.2427669,-0.392059488205313,-0.729879167548197,0.559969426386244
199,"Huntington Beach, FL",26.61299695,-80.2186208190123,0.151889922424189,-0.88105594734187,0.447961905879834
200,"Dover, NH",43.198057,-70.8739158,0.238852761016864,-0.688751379728071,0.684522384935146
201,"Hope, BC, Canada",49.3799438,-121.4413515,-0.339599056949989,-0.55545072436993,0.759043459437994
202,"Mount Clemens, MI",42.5972563,-82.8779754,0.0912674861560988,-0.730449783420183,0.676840719720788
203,"Hope Mills, NC",34.9704419,-78.9453056,0.15712581762224,-0.804242645233169,0.573153770837196
204,AZ,40.3936294,47.7872508,0.511714895430798,0.564090609136298,0.648035223177327
205,"Albany, NY",42.6511674,-73.754968,0.205750863721848,-0.70612713437326,0.677533063532343
206,"Dearborn, MI",42.3222599,-83.1763145,0.087847781291633,-0.734132226158358,0.673299815712072
207,"Online, GA",-0.8999695,11.6899699,0.979137494732353,0.202590876676567,-0.0157067850520683
208,"Online, TX, USA",31.8160381,-99.5120986,-0.140425372094868,-0.838061778216257,0.527193674815075
209,"Vernon, BC, Canada",50.268277,-119.267578,-0.312494708369058,-0.557598117656463,0.76904577004708
210,"Kahului, HI",20.8894101,-156.4727118,-0.856604550660542,-0.372947466056426,0.356565325501152
211,Scotland,56.7861112,-4.1140518,0.546354569912344,-0.0392978669371955,0.836631556654471
212,"Belize City, Belize",17.5000543,-88.2003115,0.0299517819032221,-0.953246227014976,0.300706703354838
213,Brazil,-10.3333333,-53.2,0.589307944095211,-0.787744187634138,-0.179374585365117
214,"Boulder, CO",40.0149856,-105.2705456,-0.201714323305418,-0.738835458124593,0.642987945136812
215,"Sparta, WI",43.9441328,-90.8129118,-0.0102152465353862,-0.719944328327277,0.693956636143504
216,"Austin, TX",30.30758105,-97.712630246401,-0.11586272376279,-0.855518803665889,0.504641858961733
217,"Mulberry, AR",35.5006417,-94.0515919,-0.0575206285315928,-0.81207442077873,0.580712073587437
218,"West Hartford, CT",41.7620447,-72.7420399,0.221294480658871,-0.712335234540097,0.666038487223243
219,"Lawrence, KS",38.9719384,-95.2359496,-0.0709484534667937,-0.774210034249909,0.628939694897233
220,"Philadelphia, PA",39.9524152,-75.1635755,0.19629023065275,-0.74102092287132,0.642151179409668
221,"Albany, GA",31.5782062,-84.1556809,0.0867480832158374,-0.847498077394132,0.523661893660048
222,"Online, United Kingdom",54.7023545,-3.2765753,0.576879497934477,-0.0330260336732453,0.81616133574354
223,Ireland,52.865196,-7.9794599,0.597847353024743,-0.0838034200402488,0.797217366388155
224,"Cape Town, South Africa",-33.928992,18.417396,0.787231297163992,0.262142490972242,-0.558165028636126
225,France,46.603354,1.8883335,0.686671874792839,0.0226392799199568,0.726614890690518
226,"High Point, NC",35.9556924,-80.0053176,0.140489229207074,-0.797186649048686,0.58715945283656
227,"Online, FL",27.7567667,-81.4639835,0.131351510999384,-0.875130025101434,0.465719035174795
228,"Arlington, TX",32.701939,-97.105624826688,-0.104091692325126,-0.835029667097995,0.540268798520795
229,Netherlands,52.2379891,5.53460738161551,0.609528165394379,0.05906248478993,0.790561217415452
230,"Waco, TX",31.549333,-97.1466695,-0.106020720178953,-0.845569242115047,0.523232513976073
231,"Stowe, VT",44.4653741,-72.6860186,0.212394954146759,-0.681336058101057,0.700478093436411
232,"Baltimore, MD, USA",39.2847494,-76.6204746396999,0.179105836625251,-0.753001113783378,0.633174874681364
233,"Online, MA",41.894802,12.4853384,0.726768742308976,0.160925646629964,0.667765027131069
234,"Honolulu, HI",21.3250785,-157.846644178573,-0.862764461146161,-0.351268582316837,0.363658999146583
235,"Ojai, CA, USA",34.4480495,-119.242889,-0.40284703463314,-0.719544599408539,0.565658762991691
236,"Sherwood, OR",45.3570983,-122.840357,-0.381066718010318,-0.590386125121147,0.71150009113793
237,"Danville, PA",40.9664806,-76.6131474,0.174822724905993,-0.734576645458369,0.655617393609698
238,"Colorado Springs, CO",38.8339578,-104.8253485,-0.199316849867245,-0.753034880998015,0.627065595738837
239,"Livonia, MI",42.36837,-83.3527097,0.0855244614650231,-0.733860752794289,0.673894622325566
240,"Foster City, CA",37.5600336,-122.2688522,-0.423224827798173,-0.670281957592534,0.609592357613781
242,"Pauma Valley, CA",33.3033679,-116.9814167,-0.379192400164188,-0.744804082373255,0.549071946595213
243,"Allston, MA",42.3554344,-71.1321271,0.238976303639527,-0.699271890271123,0.673727800951868
244,"Kirtland, OH",41.628937,-81.361499,0.112268688136795,-0.738983222080806,0.664303800340713
245,"Sunnyvale, CA",37.3688301,-122.0363496,-0.421578149391086,-0.673714599310479,0.606943574504177
247,"Unknown, Unknown, Phillipines",10.2447856,-61.4561398,0.470213240286596,-0.864446335729181,0.177853988719884
248,"Glenwood Springs, CO",39.5507448,-107.3255001,-0.229621768285268,-0.736076626651597,0.636761370708644
249,"Marin County, CA",38.0409144,-122.6199638,-0.424551356898943,-0.6633431167889,0.6162240296873
250,"Peabody, MA",42.5278731,-70.9286609,0.240794391684482,-0.696499307668581,0.675948796396952
251,"Albany, CA",53.63255515,-113.548630022797,-0.236904279235494,-0.543580397988906,0.805230844790569
252,"Thessalonika, Greece",40.6403167,22.9352716,0.698825738094443,0.295702645318173,0.65130832432005
253,"Dunwoody, GA",33.9461513,-84.3345306,0.081894467643425,-0.825510547039623,0.558413496340966
254,"Puerto Vallarta, Mexico",20.69820775,-105.181524169965,-0.244975090393918,-0.902808631683193,0.353445582296359
255,"Ann Arbor, MI",42.2681569,-83.7312291,0.0808030245007113,-0.735580246563673,0.672601347082255
256,"Friendswood, TX",29.5293998,-95.2010447,-0.0788754712068624,-0.866520472605723,0.492870095052489
257,"Arcata, CA",40.866517,-124.08284,-0.423787802359499,-0.626335956594041,0.65429898979651
258,"Monterey Park, CA",51.0814733,-113.9284589,-0.25480113672358,-0.574221258637059,0.778040054787441
259,"Sunrise, FL",26.1482449,-80.3288859410087,0.150799532560426,-0.88489957479618,0.440695182076111
260,"Yreka, CA",41.732616,-122.637766,-0.402477055748105,-0.628422846280449,0.665655275551179
261,"Deer Park, NY",40.7617653,-73.3292858,0.217284897514673,-0.72559553812408,0.652915299534683
262,"Paul, ID",-2.9291275,115.1596523,-0.424586562081945,0.903944121357333,-0.0511006532536932
264,"Bend, OR",44.0581728,-121.3153096,-0.373508230109263,-0.613943504498239,0.695388362949127
265,"Tacoma, WA",47.2495798,-122.4398746,-0.364121294746308,-0.57288170342419,0.734317531177127
266,"Charlotte, NC",35.2270869,-80.8431268,0.129995521708119,-0.806462343434898,0.576818561557554
267,"Falls Church, VA",38.882334,-77.1710914,0.172844466440505,-0.759004963785343,0.627723072198328
268,"Garberville, CA",40.100569,-123.796139,-0.425476028596636,-0.635661161819301,0.644131226105497
269,"Washington, DC",38.8950092,-77.0365625,0.174594954660124,-0.758461691263776,0.627895265703223
270,"Buffalo, NY",42.8867166,-78.8783922,0.141332121147746,-0.718940569593671,0.68055101860493
271,"Metairie, LA",30.001852,-90.1767149159888,-0.00267099093584073,-0.86600512256848,0.500027992708981
272,"South Jordan, UT",40.5621704,-111.929658,-0.283723950673415,-0.704731189834992,0.650272765759128
273,"Elmhurst, NY",40.7365804,-73.8783932,0.210400783821222,-0.727920223071762,0.652582300564895
274,"Shanghai, Online, China",31.2253441,121.4888922,-0.446665465940756,0.72920908317597,0.518405318789833
275,"Hicksville, NY",40.7684331,-73.5251253,0.214781965679325,-0.726261119032464,0.653003441185909
276,"Tallahassee, FL",30.4380832,-84.2809332,0.0859167073305603,-0.85788561136048,0.506606945493377
277,"Richmond, VA",37.5385087,-77.43428,0.172512353745387,-0.773950703473275,0.609294507113308
278,"Kingston, RI",41.4803791,-71.5225598,0.237439364606144,-0.710561117893194,0.662363529999807
279,"Halifax, Canada",44.6486237,-63.5859487,0.316483033567233,-0.63715854310246,0.702757056468046
280,"Bronx, NY",40.85048545,-73.8404035580209,0.210521895200707,-0.726533033092941,0.654087366844731
281,"Winnipeg, MB, Canada",49.884017,-97.168579,-0.0804062575594631,-0.639300385432037,0.764741689024294
282,"Edgewater, CO",39.7508575,-105.063811236229,-0.199815392859397,-0.742412860808419,0.639450508548319
283,"Online, NH",43.4849133,-71.6553992,0.228355145772011,-0.688683420453575,0.68816355162985
284,"Lafayette, LA",30.2240897,-92.0198427,-0.0304544306310695,-0.863526374376068,0.503383281816014
285,"Chico, CA",45.5484418,-73.5428,0.198396003038145,-0.671615586106659,0.713842791150192
286,"Hemet, CA",33.778562,-117.035766636246,-0.377815765661594,-0.740362285345531,0.555984652356058
287,"Palo Alto, CA",37.4455862,-122.1619289,-0.422620566018839,-0.672100056143291,0.608007706949593
288,"Davis, CA",53.1103334,-105.6567239,-0.161998425214436,-0.578003266029963,0.799792932381087
289,"Unknown, FL",27.7567667,-81.4639835,0.131351510999384,-0.875130025101434,0.465719035174795
290,"Corte Madera, CA",37.9254806,-122.5274755,-0.424146722027184,-0.66507298139652,0.614636061104406
291,"San Francisco, Online",37.7647993,-122.4629897,-0.424321456779609,-0.667001662285446,0.612421491968467
292,"Portsmouth, NH",43.0717552,-70.7625532,0.240687586778169,-0.689708852011941,0.682913746403798
293,"Sligo, Ireland",54.2720696,-8.4751357,0.577560372095179,-0.086060753995374,0.81179896723698
294,"Oviedo, FL",28.6593925,-81.2046904649668,0.134171985144486,-0.867167847202156,0.479601713071551
295,"Tampere, Finland",61.4980214,23.7603118,0.436742072701067,0.19226493948819,0.878800634374133
296,"Hanford, CA",36.3274502,-119.6456844,-0.398499992409611,-0.700186339862397,0.592399228155843
297,"Longmont, CO",40.1672117,-105.1019287,-0.199093334826693,-0.737773957576618,0.645020489247684
298,"West Palm Beach, FL",26.7153425,-80.0533746,0.1542918705095,-0.87982466279814,0.449558206939678
299,"Highbridge, WI",46.3888384,-90.7362963,-0.00886372795144575,-0.689703650400146,0.724037505210549
300,"Redmond, WA",47.6694141,-122.1238767,-0.358085350780515,-0.570308869947725,0.739271718933806
301,"Sparks, NV",39.5348431,-119.7527683,-0.382733188849766,-0.669569099951262,0.636547348233693
302,"Fort Lauderdale, FL",26.1223084,-80.1433786,0.153697922858623,-0.884603149226946,0.440288788054743
303,"East Haven, CT",41.2762081,-72.8684337,0.22137822876842,-0.718193041129001,0.659689650897476
304,"Hamilton, NJ",40.2070573,-74.0812506,0.209467525987889,-0.73442921930991,0.645551761968278
305,"Larkspur, CA",53.47988665,-113.381223443886,-0.236165675003958,-0.546237734700263,0.803648002012977
306,"Lakeland, FL",28.0394654,-81.9498042,0.123603199102188,-0.873926423521943,0.470079626703659
308,"Duncansville, PA",40.4234058,-78.433903,0.152634002910277,-0.745815107807319,0.64843094167532
309,"Brockton, MA",42.0834335,-71.0183787,0.241401698349912,-0.70181266726923,0.670212056064517
310,"Chula Vista, CA",32.6400541,-117.0841955,-0.383396436110874,-0.74973222142216,0.539359591496131
311,"Oakland, CA",44.4563559,-64.3575352806024,0.308892961268033,-0.643485002548593,0.700365754427002
312,"Chicago, Il",41.8755616,-87.6244212,0.030863364074369,-0.743956414491372,0.667515023123192
313,"Longview, WA",46.1377048,-122.9344623,-0.376730386022328,-0.581569205399245,0.721007264581126
314,"Holland, MI",42.7876022,-86.1090828,0.0497987795073458,-0.732185315833044,0.679282522105527
315,"Turin, NY",43.627378,-75.41153,0.182317488770791,-0.700505489866611,0.689965500554233
316,"Thunder Bay, Ontario, Canada",48.406414,-89.259796,0.00857594061167912,-0.663787098876612,0.747872409310302
317,"Online, India",22.3511148,78.6677428,0.181735447321709,0.906839720100714,0.380281407952633
318,"Altoona, PA",40.518681,-78.394736,0.152926679587849,-0.744653352762386,0.649695940336688
319,"Port Orange, FL",29.1015957,-81.0105567775555,0.136526960634866,-0.863026428715779,0.486359714982536
320,"Calgary, Alberta, Canada",51.02532675,-114.049868485806,-0.25632792998364,-0.574376019638269,0.777424067272683
321,"Coon Rapids, MN",45.1199652,-93.2877277,-0.0404677097911924,-0.704463329674304,0.708585761646711
322,Ecuador,-1.3397668,-79.3666965,0.184472211894306,-0.982559576825227,-0.0233812110005823
323,"Torrance, CA",44.9955309,-79.5692407,0.128029653112841,-0.695475670626292,0.707051624346282
324,"San Pedro, CA",33.7358518,-118.2922934,-0.394156476782078,-0.732263955614578,0.555364899069459
325,"Toronto, Ontario, Canada",43.653963,-79.387207,0.133251643358446,-0.711145648976464,0.690301286022355
326,"Mumbai, India",18.9387711,72.8353355,0.279142875807034,0.903737603173816,0.324557544197982
327,"Tyler, TX",32.3512601,-95.3010624,-0.0780487392505592,-0.841170281451204,0.5351083552933
328,"Manchester, England, United Kingdom",53.4791301,-2.2441009,0.594659140782835,-0.023302901665231,0.803640144005637
329,"Houston, TX",29.7589382,-95.3676974,-0.0812101639655988,-0.864314562744604,0.496351937536548
330,"Pomona, CA",34.0553813,-117.7517496,-0.385782472302716,-0.733197537079507,0.5599939782574
331,"Spokane, WA",47.6579425,-117.4212265,-0.310191500627316,-0.597877839420768,0.739136876409321
333,"Palm Desert, CA",33.7288179,-116.3825711,-0.369565317702154,-0.745053485092817,0.55526280291656
334,"Saskatoon, Saskatchewan, Canada",52.131802,-106.660767,-0.175992787188898,-0.588077232462517,0.789424922026604
335,"Quebec City, Quebec, Canada",46.8259601,-71.2352226,0.220101362334806,-0.647848707905462,0.729278713499569
336,"Westminister, CO",39.6473344,-75.9685561,0.186686552134496,-0.74701215058795,0.638060324833083
337,Mexico,19.4326009,-99.1333416,-0.149690195464447,-0.931077355755891,0.332697765217073
338,"St. Paul, MN",44.9504037,-93.1015026,-0.0382911148451969,-0.706681971485983,0.706494431471753
339,"Newburg, NY",42.6931172,-78.1197318,0.151311572220999,-0.719252396377221,0.678071381506132
341,"Addison, IL",41.931696,-87.9889556,0.0261065162140207,-0.743483779816219,0.668244206081396
342,"Frankfurt, Hessen, Germany",50.1106444,8.6820917,0.63395843333367,0.0968064929215973,0.767284306977107
343,"Unknown, England, United Kingdom",52.7954791,-0.540240286617432,0.604635084156492,-0.00570125608831303,0.796482209899309
344,"Glen Ridge, NJ",40.805378,-74.2037566,0.206050346441273,-0.728348756337669,0.653491655549482
345,"Sao Paulo, Brazil",-23.5506507,-46.6333824,0.629469904264376,-0.666423104815392,-0.399559613817026
346,"Cary, NC",35.7882973,-78.7811925,0.157820851679336,-0.795682658233625,0.584792002477361
347,"Woodside, CA",44.64566135,-63.5364297454248,0.317049782811309,-0.63691730518403,0.702720272637993
348,"Online, Pakistan",30.3308401,71.247499,0.277477747585659,0.817305875176998,0.504992283105346
349,"Seneca, SC",34.6865321,-82.9527288,0.100883779142224,-0.816065743224186,0.569086255186277
350,United Kingdom,54.7023545,-3.2765753,0.576879497934477,-0.0330260336732453,0.81616133574354
351,"Madison, WI",43.074761,-89.3837613,0.00785626816006545,-0.730420941322461,0.682952068250918
352,"Deland, FL",29.0283213,-81.3031098,0.132212517595196,-0.864326421430056,0.485241885464407
353,"Geraldton, Western Australia, Australia",-28.77035,114.6147159,-0.365098059337214,0.796902498646868,-0.481300129564265
354,OR,43.9792797,-120.737257,-0.36778433616243,-0.618502904590043,0.69439818482427
355,"Watertown, NY",43.9747838,-75.9107565,0.175185399411125,-0.697996887516099,0.694341717636931
356,"Unknown, CO",2.8894434,-73.783892,0.278906034455403,-0.958994454597015,0.050408927746341
357,"Panama City, FL",30.1600827,-85.6545729,0.0655120547024424,-0.862139565844187,0.502417694448216
358,"Aliso Viejo, CA",33.5761376,-117.7258122,-0.387616199945944,-0.7374926051951,0.553044608347293
359,"Chino Hills, CA",33.9926803,-117.760056,-0.386173966284575,-0.733683452689831,0.559086986982498
360,"Rancho Cucamonga, CA",34.1033192,-117.5751735,-0.383304026989832,-0.7339674048206,0.560686963959651
361,"Sebastopol, CA",43.3325941,-80.8363973,0.115838626099289,-0.718099371519261,0.686232253196446
362,"Satellite Beach, FL",28.1761233,-80.5900519,0.144122879755553,-0.86963864610777,0.47218346087809
363,"Knoxville, TN",35.9603948,-83.9210261,0.0857172325762395,-0.804871613834285,0.587225886080701
364,"Tijuana, BC, Mexico",32.4485665,-116.839507093495,-0.381002860246673,-0.752966923764766,0.536542293020857
365,"Reseda, CA",34.2011156,-118.5364742,-0.395106143730491,-0.726591568772034,0.562099481743058
366,"Westmoreland, TN, USA",38.0453544,-84.6343876,0.0736419073842256,-0.784072442963099,0.616285058769634
367,"Las Vegas, NV",36.1662859,-115.149225,-0.343087425470048,-0.730778172528134,0.590130732160913
368,"Bayshore, NY",8.97292075,-79.515944558959,0.179735073608728,-0.97127205110292,0.1559676442766
369,"Bellflower, CA, USA",33.8825705,-118.1167679,-0.391239847143666,-0.73221130301811,0.557492591645417
370,"Kiev, Ukraine",50.4501071,30.5240501,0.548506584900595,0.323405270987357,0.771070396927726
371,"Orinda, CA",37.8771476,-122.1796888,-0.420377909842801,-0.66807389539046,0.613970425357781
372,"Pasadena, CA",49.0139234,-57.5986531,0.351448743019702,-0.553765830070311,0.754868986299219
373,"Middletown, NY",41.44634,-74.420917744689,0.201312243601041,-0.72203705421822,0.661918327977245
374,"Greenville, MS",33.4000633,-91.0551312,-0.0153732719201392,-0.834705697746692,0.550481662419083
375,"Rio de Janeiro, Brazil",-22.9110137,-43.2093727,0.671357565691002,-0.630653420099264,-0.389301018116513
376,"Adelaide, South Australia, Australia",-34.9281805,138.5999312,-0.614993189910467,0.54219074285984,-0.572549189782715
377,"Online, CT",41.8523094,1.5745043,0.744585932609661,0.0204665851304501,0.667212790534549
378,"Hampton, NH",42.9304376,-70.824896,0.24048949515067,-0.691559159456259,0.681109926292613
379,"Grass Valley, CA",39.2086655,-121.053123077412,-0.399692314421726,-0.663804833766429,0.632146499207682
380,"Little Rock, AR",34.7464809,-92.2895948,-0.0328264674870925,-0.821025969525841,0.569946296063473
381,"Bay Area, Online, Unknown",37.7884969,-122.3558473,-0.422937835428148,-0.667579943094595,0.612748404274683
382,"Half Moon Bay, CA",52.3472138,-114.1766304,-0.250184379958193,-0.557293316827434,0.791727184732476
383,"Evanston, IL",42.0447388,-87.6930459,0.0298928173240759,-0.742020232774149,0.669710679044487
384,"Online, USA",39.7837304,-100.4458825,-0.139327924392716,-0.755729171471683,0.639891513360774
385,"West Hollywood, CA",34.0900091,-118.3617443,-0.393405542735926,-0.7287509103289,0.560494593764695
386,"Sinsheim, Baden-Wuerttemberg, Germany",49.2553,8.87722,0.644871298199818,0.100721487616881,0.75762536301943
388,"Aspen, CO",39.1911128,-106.8235606,-0.224317014351563,-0.741871131400174,0.631909092724125
390,"Athens, Greece",37.9841493,23.7279843,0.72155307836162,0.317160075807579,0.615443451033969
391,CO,2.8894434,-73.783892,0.278906034455403,-0.958994454597015,0.050408927746341
392,"Greenville, SC",34.851354,-82.3984882,0.108555996730153,-0.813425631021305,0.571449331412256
393,"Stoneham, MA",42.4800954,-71.0994976,0.238899098859145,-0.697747203672663,0.675334036111958
394,"Baton Rouge, LA",30.4459596,-91.18738,-0.0178647697424853,-0.861922360025608,0.506725463431565
395,"Woodbine, MD",39.359942,-77.0620833,0.17311060375457,-0.753548690009538,0.634190106082268
396,"Danbury, CT",41.394817,-73.4540111,0.213637309528457,-0.719107407027094,0.661244007259205
398,"Waubun, MN",47.1807067,-95.9388858,-0.0703257230146807,-0.676040329026158,0.733501033545739
399,"Tulsa, OK",36.1556805,-95.9929113,-0.0842987015513182,-0.803004238012808,0.58998129008489
400,"San Gabriel, CA",34.0991325,-118.1086041,-0.390139943057735,-0.730403176660175,0.560626457059987
401,"Walnut Creek, CA",44.3578383,-79.6285378,0.128718618274372,-0.703305349576117,0.699137398918948
402,"San Luis Obispo, CA",35.2827525,-120.6596156,-0.416267220356011,-0.702200876749834,0.577611919846574
403,"Katy, TX",29.7857853,-95.8243956,-0.088073253699138,-0.863408325628976,0.496758658925454
404,"Hialeah, FL",25.8575963,-80.2781057,0.151959300218505,-0.886957625865232,0.436135920323715
405,"Jefferson, WI",43.0224668,-88.7673031,0.0157278285041969,-0.730917024804067,0.682285085768488
407,"Redding, CA",40.5863563,-122.3916754,-0.406827769171314,-0.641263908254946,0.650593395448097
408,"Burlington, VT",44.4723989,-73.2114941,0.206112579255817,-0.683173082365601,0.700565588794938
409,"Boca Raton, FL",26.3586885,-80.0830984,0.154314372674486,-0.882644114382869,0.44398923605349
410,"Newark, NJ",40.735657,-74.1723667,0.206666082215592,-0.729000280960745,0.652570088818674
411,"Burbank, Online",34.1816482,-118.3258554,-0.392523132580774,-0.728207137930773,0.561818435667297
412,"Cambridge, United Kingdom",52.2034823,0.1235817,0.61285760320906,0.00132187924759993,0.79019226193636
413,"Montreal, Quebec, Canada",45.4972159,-73.6103642,0.19778389011492,-0.672461087308738,0.713216389931246
414,"Melbourne, Victoria, Australia",-37.8142176,144.9631608,-0.646841010888195,0.453543037515116,-0.613103106952411
415,FL,27.7567667,-81.4639835,0.131351510999384,-0.875130025101434,0.465719035174795
416,"Bangkok, Thailand",13.7538929,100.8160803,-0.18227609834808,0.954069946834855,0.237751888567763
417,"Cambridge, MA",42.3750997,-71.1056157,0.239224943774304,-0.69894241738083,0.673981396970289
418,"Palmdale, CA",34.5793131,-118.1171108,-0.388020434481338,-0.726175667687149,0.567546510943408
419,"Bangkok, ME",19.516112,-96.8601604,-0.112584023014469,-0.9357995444875,0.334071923841058
420,"Westwood, CA",44.3214498,-78.0656936,0.147944050261988,-0.699967417669142,0.698683170109078
421,"Boston, MA",42.3602534,-71.0582912,0.239858847535843,-0.698909746338766,0.673789952233973
422,"Stony Brook, NY",40.9256538,-73.140943,0.21912636356066,-0.723087069072241,0.65507917638496
423,"Huntington Beach, CA",33.6783336,-118.0000166,-0.390677488739967,-0.734756978935591,0.554529784319361
424,"Kamloops, BC, Canada",50.6758269,-120.3394159,-0.320099160384182,-0.546919984143922,0.773572917355147
425,"Buenos Aires, Argentina",-34.6075616,-58.437076,0.430818862569342,-0.701302509069824,-0.567952373378991
426,"Buford, GA",34.1206564,-84.0043513,0.0864722139431494,-0.823329633868302,0.56093749224852
427,"Minneapolis, MN",44.9772995,-93.2654692,-0.0402944118006792,-0.706238315870093,0.706826571072857
428,"Shanghai, China",31.2253441,121.4888922,-0.446665465940756,0.72920908317597,0.518405318789833
429,"Fort McMurray, AB, Canada",56.7291997,-111.3885221,-0.200067907933807,-0.510814324394175,0.836087051812616
430,"Memphis, TN",35.1490215,-90.0516285,-0.00073678065588929,-0.817657119302123,0.575705039415862
431,"San Rafael, CA",37.9735346,-122.5310874,-0.42391128649775,-0.664611393985144,0.615297420898987
432,"Rochester, NY",43.157285,-77.615214,0.156455672998313,-0.712503258419639,0.684003456956207
433,"Online, Canada",61.0666922,-107.9917071,-0.149433116103759,-0.460134441091783,0.875183432163037
434,"Cabin John, MD",38.975388,-77.1580349,0.172790601814472,-0.75797057226968,0.628986501840672
435,"Brandon, FL",27.937801,-82.2859247,0.118586065694737,-0.875461661901279,0.468512778442695
436,"Rothbury, MI",43.507232,-86.347572,0.0462035168370404,-0.72381431534098,0.68844612856734
437,"Nevada City, CA",39.2615606,-121.0160594,-0.398961943384304,-0.663562813076501,0.632861565299252
438,MI,39.7837304,-100.4458825,-0.139327924392716,-0.755729171471683,0.639891513360774
439,"Newport, RI",41.4899827,-71.3137707,0.239991534672063,-0.709585979944749,0.662489094515222
440,"Bellvue, WA",39.8397944,-75.4242405,0.193234240009399,-0.743126423479448,0.640643151227448
441,"Venice, CA",54.698056,-112.147222,-0.217855691034568,-0.53524791930019,0.816117983363109
442,"Online, NC",35.6729639,-79.0392919,0.154458470113814,-0.797539583386884,0.583157949393794
443,"Denver, CO",39.7391428,-104.984696,-0.198823863816267,-0.74281434300232,0.639293299673321
444,"Milford, CT",41.2222218,-73.0570603,0.219193674964376,-0.719512245586502,0.658981229859152
445,"Butte, MT",46.0131505,-112.5365089,-0.266179852295013,-0.64145861910282,0.719499219048157
446,"San Francisco, CA",45.4149778,-72.749396,0.208169436312804,-0.670390192453879,0.712209572841352
447,"Schaumburg, IL",42.0333608,-88.083406,0.0248411750315936,-0.742339576075148,0.669563193295166
448,"Bakersfield, CA",35.3738712,-119.0194639,-0.39555207238271,-0.713023478081955,0.578909386465322
449,"Orange County, CA",33.7500378,-117.8704931,-0.388690769300144,-0.735024212205338,0.555570781568635
450,"Daly City, CA",37.7057671,-122.4619205,-0.424647456937709,-0.667541616104284,0.611606677600251
451,"Berkeley, CA",44.3669375,-80.7272504,0.115191196140237,-0.70553462997879,0.699250937956092
452,"Peachtree, GA",33.9420457,-84.2938124,0.082485087983021,-0.825491952332396,0.558354051561267
454,"Lisbon, Portugal",38.7077507,-9.1365919,0.770445259132017,-0.123910056171121,0.625348223520838
455,"Penngrove, CA",38.2996376,-122.6666533,-0.423585524109843,-0.660647718819223,0.619774068014746
456,"Corpus Christi, TX",27.8002542,-97.3955744,-0.113862110640617,-0.877220189428528,0.466390564891103
457,"Union City, CA",37.5963232,-122.0816297,-0.420827173789952,-0.671334053183174,0.610094319623297
458,"Gainesville, FL",29.6519396,-82.3249961,0.116064539889101,-0.861261500871098,0.494729875485194
459,"Manchester, NH",42.9956397,-71.4547891,0.232625643025901,-0.693425888531923,0.681942700907121
460,"Tiburon, CA",37.8734371,-122.4566122,-0.42362327605624,-0.666067867978936,0.613919306773597
461,"Online, PA",8.3096067,-81.3066246,0.149559727431006,-0.978133552880278,0.144522111320613
462,"Wellington, New Zealand",-41.2887467,174.7772092,-0.748274162958317,0.0683984039139842,-0.659854101594473
463,"Riverside, CA",45.1262565,-64.1022150017494,0.308159607420547,-0.634692107923876,0.708663237718425
464,"Snoqualmie, WA",47.5278365,-121.876437419641,-0.356582659420917,-0.573399482437886,0.737605477569325
465,"Kansas City, MO",39.100105,-94.5781416,-0.0619428814364271,-0.773569202781095,0.630677229609547
466,"Elk Grove, CA",38.4087993,-121.3716178,-0.407930764814747,-0.669042899744875,0.621268130052254
467,"Minnetonka, MN",44.9127229,-93.499059,-0.0432219333768931,-0.706862882655043,0.706028844736366
468,"Richfield, OH",41.2397772,-81.6381785,0.109352510881648,-0.743963719150937,0.65921166020557
469,"Macon, GA",32.8406946,-83.6324022,0.0931819527438914,-0.834998391024998,0.542305090026361
471,"Tukwila, WA",47.4627356,-122.2559156,-0.360819573133338,-0.5717336027481,0.736837786173153
472,"Glasgow, Scotland",55.856656,-4.2435817,0.559726538362887,-0.0415318203022885,0.827635976836845
473,"Fort Wayne, IN",41.0799898,-85.1386015,0.0638806664361101,-0.751081249070458,0.657112028310576
474,"Online, NV",39.5158825,-116.8537227,-0.348474170747451,-0.688257311202504,0.636292091651449
475,"St. Petersburg, FL",27.7703796,-82.6695085,0.112896606116554,-0.877590034576344,0.465929273108758
476,"Mill Valley, CA",46.4020014,-63.6278018,0.3063181080473,-0.617826385425016,0.724195950109487
477,"Edison, NJ",40.5382375,-74.3945173450877,0.204441676697903,-0.731957382662606,0.649955376002582
478,"Halifax, Nova Scotia, Canada",44.6486237,-63.5859487,0.316483033567233,-0.63715854310246,0.702757056468046
479,"Key West, FL",24.5625566,-81.7724368,0.13015519778055,-0.900146850012582,0.415686507963792
480,"Fort Myers, FL",26.640628,-81.8723084,0.12637034059994,-0.884858317904184,0.448393013161927
481,"Online, Ireland",52.865196,-7.9794599,0.597847353024743,-0.0838034200402488,0.797217366388155
483,"Chicago, Online",41.8755616,-87.6244212,0.030863364074369,-0.743956414491372,0.667515023123192
484,"Ghaziabad, India",28.666667,77.666667,0.187416982174468,0.85717571061646,0.4797131183549
485,"Columbus, OH",39.9622601,-83.0007065,0.0933995312209382,-0.76075568974196,0.642282887902943
486,"Altamonte Springs, FL",28.6649055,-81.376268613721,0.131567643291471,-0.86752012071861,0.479686142583979
487,"Santa Cruz, CA",36.974201,-122.0297182,-0.423707253252787,-0.67729138486534,0.601455354559395
488,"Johnson City, TN",36.3134398,-82.3534728,0.107219356624304,-0.79862416334342,0.592202208108931
489,"Deland, East",29.0283213,-81.3031098,0.132212517595196,-0.864326421430056,0.485241885464407
490,"Studio City, CA",34.1483989,-118.3961877,-0.393571714698967,-0.728011433873978,0.561338273715297
491,"San Jose, CA",37.3361905,-121.8905833,-0.420045383016949,-0.67507841372622,0.606490734906178
492,"San Diego, CA",32.7174209,-117.1627714,-0.384091430244003,-0.748557062461414,0.54049615859158
493,"Syracuse, NY",43.0481221,-76.1474244,0.174966779780305,-0.709525877520942,0.682612375438248
494,"Amsterdam, Netherlands",52.3745403,4.89797550561798,0.608267817862112,0.0521252966020215,0.792018443729321
495,Singapore,1.2904753,103.8520359,-0.239354617451368,0.970670987213274,0.022521138672752
496,"Online, OR",43.9792797,-120.737257,-0.36778433616243,-0.618502904590043,0.69439818482427
497,"Online, Colombia",2.8894434,-73.783892,0.278906034455403,-0.958994454597015,0.050408927746341
498,"Ventura, CA",53.3479495,-110.857334550843,-0.212540823322549,-0.557835475201506,0.802275501949351
499,"Online, MD",39.5162234,-76.9382069,0.17434781380032,-0.751484778806131,0.636296681624028
500,"Clearwater, FL",27.9658533,-82.8001026,0.110696155339883,-0.87626291583101,0.468945267096604
501,"San Leandro, CA",37.7249296,-122.1560768,-0.420969209176622,-0.669625643650516,0.611871246497857
502,"New York, NY",40.7308619,-73.9871558,0.209036585565548,-0.728380909173844,0.652506672031928
503,"Chester, PA",39.849557,-75.3557458,0.194094878167545,-0.742789265557463,0.640773973598905
504,"Queen Creek, AZ",33.2483858,-111.6341585,-0.308326671122084,-0.777389885739747,0.548269668524821
505,"Jersey City, NJ",40.7281575,-74.0776417,0.207894459163262,-0.728739743685314,0.652470903429936
506,"Marysville, CA",44.1935658,-76.440109,0.168106398745675,-0.69700309317888,0.697084590849514
507,"Springfield, MA",42.1014831,-72.589811,0.222001756153771,-0.707967242408163,0.670445824762615
508,"Lesko, Poland",49.4689014,22.3303816,0.601126574136739,0.24691242547533,0.760053350767245
509,"Milton Keynes, England, United Kingdom",52.0429797,-0.7589607,0.615016224717058,-0.00814720475514738,0.788472362476615
510,"Tampa, FL",27.9477595,-82.458444,0.115938801694269,-0.875734018547693,0.468666323752844
511,"Volcano, HI",19.4283512,-155.2382751,-0.856351037176447,-0.394995741250163,0.332627818321106
512,"East, France",44.0225752,4.9678619,0.716364818002494,0.0622689244662912,0.694941744734093
513,NY,43.1561681,-75.8449946,0.178394375905492,-0.707343036130582,0.683989236671791
514,"Online, Finland",63.2467777,25.9209164,0.404862922715486,0.196773552644465,0.892953628577627
515,"Carthage, NY",43.97824,-75.609627,0.178841016453753,-0.697025958201049,0.694385126876791
516,"BC, Canada",55.001251,-125.002441,-0.328999685770462,-0.469817643293323,0.81916456760119
517,NM,34.5708167,-105.993007,-0.22687021645807,-0.791555078536567,0.567424411289503
518,"Amherst, MA",42.3803676,-72.523143,0.221842688645908,-0.704587354935229,0.674049316266793
519,"Burbank, CA",34.1816482,-118.3258554,-0.392523132580774,-0.728207137930773,0.561818435667297
520,"Richland, WA",46.2778406,-119.2769067,-0.337999574768719,-0.602877397562616,0.722699889971136
521,"El Segundo, CA",33.912594,-118.383179,-0.394501282332307,-0.730127112754754,0.557927537820613
522,"Kendall, FL",25.6792695,-80.3172743,0.151580496705684,-0.888395089969231,0.433333032593893
523,Malaysia,2.3923759,112.8471939,-0.387936360553699,0.920740423130759,0.0417427044325366
524,"Logan, UT",41.7313447,-111.8348631,-0.277563778284711,-0.692736203234418,0.66563871710762
526,"Online, CO",2.8894434,-73.783892,0.278906034455403,-0.958994454597015,0.050408927746341
527,"Grasso, RI",37.4930084,15.0902013534959,0.766067987982421,0.206560463241618,0.608664614392831
528,"Saginaw, MI",43.4200387,-83.9490365,0.076565101854005,-0.722287570785657,0.687341581942079
529,"Ottawa, Quebec, Canada",45.49949235,-76.0534044548608,0.16893284737323,-0.680253150434162,0.713244238955192
530,"Atlantic City, NJ",39.3642852,-74.4229351,0.207611638214466,-0.744732151233594,0.634248713516148
532,"Mastic, NY",40.8020431,-72.8409359,0.223325940586446,-0.723278481686469,0.653447597126575
533,"Lewiston, ID",46.4165506,-117.0176569,-0.313175024825734,-0.614172618584279,0.724371036421757
534,"Kenmore, WA",47.7573202,-122.2440148,-0.358674826355281,-0.568596799887138,0.740304024098961
535,"Redwood City, CA",37.4863239,-122.2325233,-0.4232176668413,-0.67121298704498,0.608572043800536
536,"Portland, FL",30.5124181,-86.1957755,0.0571596147778324,-0.859620848733199,0.507725097726777
538,"Online, Europe",51.0,10.0,0.619759600234555,0.109280339074444,0.777145961456971
539,"Wonderlake, IL",30.552205,-87.389131,0.0392282735953761,-0.86027242292145,0.50832322483985
540,Borneo,1.42965855,114.740599198093,-0.418380449649814,0.907929134807584,0.0249496596844681
541,"Bryan, TX",30.65805845,-96.3527592329039,-0.0951835733614792,-0.854943541446452,0.509913353719177
542,"Melrose Park, IL",41.9005865,-87.8567277,0.0278358313680596,-0.743784019625655,0.667840174474067
544,"Lexton, Victoria, Australia",-37.254675,143.51654812357,-0.639968682431408,0.473265934931695,-0.605358935128768
545,"Hollywood, FL",26.0112014,-80.1494901,0.153749342784167,-0.885459088040695,0.438546853824739
546,"Oak Hills, CA",50.7444357,-120.3560866,-0.319789914501538,-0.546027115618207,0.774331195027528
547,"Salt Lake City, UT",40.7670126,-111.8904308,-0.282372810815348,-0.702763561841998,0.652984664337064
548,"Rye, CO",37.9236194,-104.9302662,-0.203236920152873,-0.762199950815205,0.614610436995723
549,"North Scituate, MA",42.21899,-70.7855981,0.243728484165849,-0.699326825587668,0.671966083236121
550,"Everett, PA",40.0114711,-78.3733484,0.154357722540399,-0.750200378914239,0.642940965384128
551,"Indio, CA",33.7192808,-116.2188054,-0.367475089952538,-0.746189656489149,0.555124359772637
552,"Stinson Beach, CA",37.9008084,-122.6450801,-0.425653679984044,-0.664423780028891,0.614296333415853
553,"England, United Kingdom",52.7954791,-0.540240286617432,0.604635084156492,-0.00570125608831303,0.796482209899309
554,"Online, OH",40.2253569,-82.6881395,0.0971719044429825,-0.757301523805924,0.645795651137532
555,"Geneva, IL",46.2017559,6.1466014,0.688142178822127,0.0741073245118478,0.721781439342708
556,"South Beach, FL",25.7744291,-80.1332415,0.15430967659551,-0.887193355277249,0.434829247016442
557,Hong Kong,22.2793278,114.1628131,-0.37877298926547,0.844273230816284,0.379122321065291
558,"Manchester, United Kingdom",53.4791301,-2.2441009,0.594659140782835,-0.023302901665231,0.803640144005637
559,"Lunchburg, VA",53.3443098,-6.2489535,0.593457705329984,-0.0649832197982919,0.802237578980889
560,"Bethel, CT",41.3712063,-73.4140097,0.214217071392132,-0.719219169323058,0.660934817362824
561,"Dallas, TX",32.7762719,-96.7968559,-0.0995071617287641,-0.834881796045688,0.541360057074967
562,"Boynton Beach, FL",26.5253491,-80.0664309,0.154347690323144,-0.881323350305436,0.446593710992792
563,"Mobile, AL",30.6943566,-88.0430541,0.0293643899888723,-0.859401032498412,0.510458223502418
564,"Toowoomba, Queensland, Australia",-27.5610193,151.953351,-0.782410323944186,0.416832420075511,-0.462693006819367
565,"Roanoke, VA",37.274532,-79.9602096795782,0.138723473154183,-0.783557493142037,0.60563475208826
566,"Fort Worth, TX",32.753177,-97.3327459,-0.107339224511699,-0.834130957578918,0.541021105401356
567,"Online, Netherlands",52.2379891,5.53460738161551,0.609528165394379,0.05906248478993,0.790561217415452
568,"Bay Area, Online, USA",37.7884969,-122.3558473,-0.422937835428148,-0.667579943094595,0.612748404274683
569,"St. George, UT",37.104153,-113.5841313,-0.319092023740697,-0.730924522453725,0.603265797854362
570,"AB, Canada",55.001251,-115.002136,-0.242415696606114,-0.519811543951967,0.81916456760119
571,"Oahu, Online",21.48349555,-158.03640389298,-0.862987299452545,-0.348031845517389,0.366233198234901
572,"Pembroke Pines, FL",26.02322025,-80.3412390662562,0.150769727006575,-0.885877965085971,0.438735364876713
573,"Clifton, NJ",40.8584328,-74.1637553,0.206393576789178,-0.727622257978844,0.654192281484533
574,"Thousand Oaks, CA",34.17142715,-118.910587729744,-0.39998272982747,-0.724251110512654,0.561670850909101
575,"Dublin, CA",43.4984009,-81.2911804,0.109834002798588,-0.717030223366433,0.688334330546082
576,"Toledo, OH",41.6786754,-83.5127283,0.0843850069691272,-0.742103394290675,0.664952421441624
577,"Wallingford, CT",41.4570418,-72.8231552,0.221329731090503,-0.716025087877053,0.662058323462566
578,"New Milford, CT",41.5867418,-73.4117653831255,0.213533909530977,-0.716822864278367,0.663753154966645
579,NJ,40.0757384,-74.4041622,0.205722315874983,-0.737021243667332,0.643799670032606
580,"Somerset, NJ",40.5675084,-74.6189556,0.201484804954791,-0.732432353246606,0.650343540976589
581,"Chicago, IL",41.8755616,-87.6244212,0.030863364074369,-0.743956414491372,0.667515023123192
582,"Cedar Rapids, IA",41.9758872,-91.6704053,-0.0216708357266237,-0.743110442837296,0.668817796283164
583,"Miami, FL",25.7742658,-80.1936589,0.153374272139363,-0.887356800064767,0.434826680442378
584,"Concord, CA",45.452798,-62.7905136,0.320755950331187,-0.623869484284061,0.712672776880299
585,"Liverpool, United Kingdom",53.4054719,-2.9805392,0.59534176353444,-0.0309977771279379,0.802874412598154
586,"Erie, PA",42.1294712,-80.0852695,0.127695759373008,-0.730554706175669,0.670808179976014
587,"Jupiter, FL",26.9266939,-80.1220891180725,0.152951065250801,-0.878369351335535,0.452850145493007
588,"Palm Beach, FL",26.6279798,-80.4494174,0.148320224117817,-0.881545086039529,0.448195685384409
589,NC,35.6729639,-79.0392919,0.154458470113814,-0.797539583386884,0.583157949393794
590,"Santa Clarita, CA",34.3916641,-118.542586,-0.394288255214653,-0.724903229369084,0.564846952589866
591,"Marina Del Rey, CA",36.9225615,-121.8517849,-0.421887767025821,-0.679064124090697,0.600735072562691
592,SC,-27.0628367,-51.114965,0.559025154384888,-0.693177857267366,-0.454967399886162
593,IA,41.9216734,-93.3122705,-0.0429901077826471,-0.742815894691058,0.668114060043014
594,"Pittsburg, PA",40.4416941,-79.9900861,0.132287490390444,-0.749481281239755,0.648673900320811
595,"Washington DC, DC",38.8950092,-77.0365625,0.174594954660124,-0.758461691263776,0.627895265703223
596,"Carlstadt, NJ",40.8403778,-74.0906974,0.207377698737041,-0.72755671018455,0.653953915449677
597,"Frederick, MD",39.4142186,-77.4109269,0.168388447352327,-0.754002028688593,0.634922256289508
598,"Online, Australia",-24.7761086,134.755,-0.639268059533553,0.644758664030606,-0.419073517676403
599,"Des Moines, IA",41.5910641,-93.6037149,-0.0470095278620252,-0.746422768497854,0.663809577332376
600,"Pearland, TX",29.5639758,-95.2864299,-0.0801392995430217,-0.866105643534581,0.493395081964041
601,"Riverdale, NJ",40.9939865,-74.3034824,0.204199216776453,-0.726631380254219,0.655979814550518
602,"Lincoln Park, NJ",40.9242652,-74.3020933,0.204432658124924,-0.727394357844296,0.655060864705153
603,"Irvine, CA",49.9584438,-110.2732606,-0.222917021080132,-0.603488423806017,0.765578032629522
604,"Martinez, CA",38.0138934,-122.1338674,-0.419062884913461,-0.667167107519408,0.615852538463708
605,"Gloversville, NY",43.0528133,-74.34369,0.197197970833093,-0.703613258704821,0.682672207193243
606,"Cleveland, OH",41.5051613,-81.6934446,0.10819257102095,-0.741039559042896,0.66268751271575
607,KY,37.5726028,-85.1551411,0.066939837743304,-0.789749444985,0.609766243956472
608,"Hollywood, CA",42.1045345,-82.4221059,0.0978402867561225,-0.735443192532299,0.670485338277713
609,Sweden,59.6749712,14.5208584,0.488776275175121,0.126595996396787,0.86317507292683
610,"Warren, OH",39.4203978,-84.180897,0.0783229921007908,-0.768526792826207,0.635005572902037
611,"Dublin, Ireland",53.3497645,-6.2602732,0.593368933018134,-0.0650921369998075,0.802294411690447
612,"Lynchburg, VA",37.40088,-79.1844923945909,0.149067906734687,-0.780293872109079,0.607388040984311
613,"McMurray, PA",40.2791485,-80.0886320172717,0.131314450703209,-0.751517474890536,0.646512180837041
614,"Bridgeport, CT",41.1670412,-73.2048348,0.217520499854391,-0.720682433385715,0.658256532327892
615,"ON, Canada",50.000678,-86.000977,0.0448270308012139,-0.641213533031686,0.766052049384746
616,"Gaillard, East, France",46.1837963,6.2112284,0.688283034910043,0.0749079446387113,0.721564455669086
617,"Detroit, MI",42.3315509,-83.0466403,0.0894958547704696,-0.73382313741472,0.673419701949475
618,"Magnolia, TX",30.2093794,-95.7507815,-0.0865934940055098,-0.859843095748451,0.503161422894917
619,"Sophia, NC",35.823192,-79.8608677,0.142737241645364,-0.798164433990864,0.585285926842186
620,"Santa Rosa, CA",49.26334935,-123.10250585,-0.356400890351245,-0.546665598797679,0.757717050387554
621,"Howell, MI",42.6072552,-83.9293952,0.0778360870114519,-0.731884062441447,0.676969174115742
622,Washington D.C.,38.8950092,-77.0365625,0.174594954660124,-0.758461691263776,0.627895265703223
623,"Shades Run, AL",33.3348339,-86.8769347,0.0455172476901956,-0.834232590461329,0.549530859165242
624,"Online, NJ",40.0757384,-74.4041622,0.205722315874983,-0.737021243667332,0.643799670032606
625,"Texas City, TX",29.383845,-94.9027002,-0.074469137483293,-0.868164147957225,0.490658088452845
626,"Nashville, TN",36.1622296,-86.7743531,0.0454282827806544,-0.806070372367951,0.590073576695478
627,"Long Island, NY",43.90594575,-74.9983060734476,0.186494300790748,-0.695923906385601,0.693476598230665
628,"Hamden, CT",41.3959287,-72.8968716,0.220615867908238,-0.716983788000605,0.661258562569437
629,"Baltimore, MI",39.2908816,-76.610759,0.179217826899756,-0.752904802773195,0.633257710953752
630,"Spring, TX",31.8160381,-99.5120986,-0.140425372094868,-0.838061778216257,0.527193674815075
632,"Southern Pines, NC",35.1740471,-79.3922539,0.150471544468281,-0.803436835095786,0.576062120188958
633,"St. Charles, IL",41.9139516,-88.3125302,0.0219134338442442,-0.743826186530443,0.668013776541123
634,"Ottawa, ON, Canada",45.421106,-75.690308,0.173481362819013,-0.68011381049648,0.712284649228394
635,"Bellingham, WA",48.7544012,-122.4788361,-0.35402980326437,-0.556168719721518,0.751890453193761
636,"Alexandria, VA",38.8147596,-77.0902476527272,0.174080523587856,-0.759481419352355,0.626804550849712
637,"Montreal, Canada",45.4972159,-73.6103642,0.19778389011492,-0.672461087308738,0.713216389931246
638,"Black Rock City, NV",40.7855563,-119.2064834,-0.369462486330992,-0.660899661040582,0.653229752254569
639,"Lynn, MA",42.466763,-70.9494939,0.240776307296002,-0.697267882099012,0.675162403009868
640,"Westchester, NY",41.1763139,-73.7907554,0.210109639898905,-0.722766823140994,0.658378355194206
641,"New Haven, CT",41.3082138,-72.9250518,0.220560186369486,-0.718059075552029,0.660109360792606
643,"Morristown, NJ",40.7970384,-74.4809492,0.202549700752619,-0.72942872700311,0.65338147429174
645,"Baton Rouge, FL",26.0924556,-80.3740104,0.150174247710534,-0.885440712235561,0.439820918602513
646,"Canton, MI",42.308081,-83.4868677071791,0.0838862818692722,-0.734763113110034,0.673116824427231
647,"Perth, Australia",-31.9527121,115.8604796,-0.370093281439394,0.763516888335406,-0.529219164675696
648,"Falon, Sweden",60.221165,18.6453227597403,0.47058692372385,0.158784516272212,0.867948975811552
649,"Hagerstown, MD",39.6419219,-77.7202641,0.163777229990209,-0.752428641777537,0.637987584494828
650,"Mexico City, Mexico",19.4326009,-99.1333416,-0.149690195464447,-0.931077355755891,0.332697765217073
651,"Victoria, BC, Canada",48.4283182,-123.3649533,-0.364936172652462,-0.55419208373999,0.748126141910373
653,"London, United Kingdom",51.5073219,-0.1276474,0.622413076426851,-0.00138665610370536,0.782687702393306
654,"Pensacola, FL",30.421309,-87.2169149,0.0418701235275128,-0.861308309779839,0.50635450848194
655,"Spring Valley, NY",41.1130231,-74.0437839,0.207115533939924,-0.724386458887068,0.657546510736567
656,"Newport, VA",38.5787326,-78.5964028,0.154567132091769,-0.766319242787497,0.623589464159332
657,"Baltimore, MD",39.2908816,-76.610759,0.179217826899756,-0.752904802773195,0.633257710953752
658,China,35.000074,104.999927,-0.212010950052929,0.791239669800424,0.573577494321186
659,"Los Angeles, Online",34.0536834,-118.2427669,-0.392059488205313,-0.729879167548197,0.559969426386244
660,"Oakland, NJ",41.0220483,-74.2430988,0.20487762454652,-0.726106478718176,0.65634940429901
661,"Vero Beach, FL",27.6387163,-80.3975399,0.147776322141631,-0.87347799595448,0.463894760907728
662,"Mississauga, ON, Canada",43.590338,-79.645729,0.130179261949124,-0.712493281126688,0.689497414141422
663,"Ibiza, Spain",38.9835256,1.4119395,0.777090864942528,0.0191537221963647,0.629096910299915
664,Slovenia,45.8133113,14.4808369,0.674855809551239,0.174288792055864,0.71707255788982
665,Volcano,38.4427907,-120.6309635,-0.399060440036222,-0.673942851322055,0.621732899523578
666,"Brattleboro, VT",42.8509152,-72.5578678,0.219748891777378,-0.699416799673779,0.680093056056819
667,"Canton, OH",40.7989522,-81.3784445,0.113480889286473,-0.748452866502725,0.653406760288417
668,"Santa Clara, CA",37.3541132,-121.9551744,-0.420705721230905,-0.674443455930251,0.606739417605651
669,"Edmonton, AB, Canada",53.535411,-113.507996,-0.237062943315339,-0.544999437776736,0.804224330476087
670,"Indianapolis, IN",39.7683331,-86.1583502,0.051498085088896,-0.766910083622329,0.639684977837192
671,"Mays Landing, NJ",39.4523326,-74.727661,0.203390911644987,-0.744884668964695,0.635436044776796
672,"Kyle, TX",29.9892928,-97.8772103,-0.118702065697157,-0.85794617628697,0.499838151999019
673,"Oslo, Norway",59.9133301,10.7389701,0.492529652784085,0.0934114463086263,0.865268075700774
674,"Napa, CA",44.6799306,-63.5483712,0.316729752907845,-0.636606952735019,0.703145682879707
675,"Plano, TX",33.0136764,-96.6925096,-0.0977242664787109,-0.832826635289414,0.544839208660419
676,"Online, NY",43.1561681,-75.8449946,0.178394375905492,-0.707343036130582,0.683989236671791
677,"Santa Barbara, CA",45.5361933,-73.6077401,0.197677716034575,-0.671986404962542,0.713693065770484
678,"Seattle, WA",47.6038321,-122.3300624,-0.360587653240491,-0.569731206041739,0.738500438180467
679,"Online, Spain",39.3262345,-4.8380649,0.770793994725576,-0.0652411029056322,0.633735130939296
680,"Pleasanton, CA",37.6624312,-121.8746789,-0.418027596642125,-0.672251459792657,0.611008104080666
681,"Bloomfield, MI",40.806767,-74.1854226,0.206279081736118,-0.728267542362451,0.653510005416489
682,"Copenhagen, Denmark",55.6867243,12.5700724,0.550205460331138,0.122683775700471,0.825967700701231
683,"Helsinki, Finland",60.1674086,24.9425683,0.451069170333831,0.209786811812593,0.867482620669635
684,"Temecula, CA",33.4946353,-117.1473661,-0.380509572822288,-0.742067526727604,0.551858904763688
685,"Newport Beach, CA",53.44429955,-113.403763676959,-0.236578770373958,-0.546602768398528,0.803278220162486
686,"Richmond, BC, Canada",49.1632727,-123.1376687,-0.357459254903701,-0.547554163893901,0.756576049506024
687,"San Antonio, CA",38.1838069,-122.5913723,-0.423391163553758,-0.662258000198249,0.618186269499745
688,"Albuquerque, NM",35.0841034,-106.6509851,-0.234479162714831,-0.783995855718327,0.574778235904109
689,NH,43.4849133,-71.6553992,0.228355145772011,-0.688683420453575,0.68816355162985
690,"Online, Germany",51.0834196,10.4234469,0.617821574578422,0.113652842302726,0.77806139437833
691,"San Ysidro, CA",32.5520013,-117.0430813,-0.383234758890834,-0.750744526026513,0.538064843879537
692,"Magna, UT",40.70268345,-112.089201928148,-0.285084659772931,-0.70245861067651,0.652133910365486
693,"Vista, CA",49.8238186,-97.1074436,-0.0798234407794457,-0.640182772689141,0.764064287775691
694,"Somerset, United Kingdom",51.083333,-3.0,0.627328505596217,-0.0328768938592466,0.7780604448991
695,"Fallbrook, CA",44.9561407,-76.3912672,0.166502643125858,-0.687780749022307,0.706565291467404
696,"Fresno, CA",36.7295295,-119.708861260756,-0.397201700149872,-0.696118531792034,0.598038292330646
697,"Gilroy, CA",37.0065078,-121.5631723,-0.418000661229773,-0.680429966288017,0.601905730317266
698,"Queens, NY",40.6524927,-73.7914214158161,0.211772592360343,-0.728518890436614,0.651469565982928
699,"Rancho Santa Margarita, CA",33.6408845,-117.6029341,-0.385743843753699,-0.737767897136695,0.553985755196486
700,"Online, HI",21.2160437,-157.975203,-0.864190436586007,-0.349590741709986,0.361885620913499
701,"Gilbert, AZ",33.3528259,-111.7890239,-0.310055275704382,-0.77562437906185,0.549793187128396
702,"Santa Ana, CA",33.7494951,-117.8732213,-0.388728228027109,-0.735010355211968,0.555562905948625
703,"Farmingdale, NY",40.7328811,-73.4458564,0.215901949675962,-0.726351526324889,0.652533377178228
704,"Medford, MA",42.4184296,-71.1061639,0.239053139770281,-0.698462270794061,0.674539882173896
705,"Walled Lake, MI",42.537811,-83.4810481,0.0836538279833522,-0.732067247899905,0.676076609280332
706,"Salem, OR",44.9391565,-123.033121,-0.385869814323792,-0.593436100181669,0.706355492223919
707,"Online, China",35.000074,104.999927,-0.212010950052929,0.791239669800424,0.573577494321186
708,"Durham, NC",36.0181316,-78.8751582,0.156061835000761,-0.793632284035655,0.588041241234443
709,"Bay Area, Online",37.7884969,-122.3558473,-0.422937835428148,-0.667579943094595,0.612748404274683
710,"Online, MS",32.9715645,-89.7348497,0.00388239070128752,-0.838931781869389,0.544222741542371
711,"Louisville, KY",38.2542376,-85.759407,0.0580666840934959,-0.783121334340943,0.619152029713582
712,"Peachland, BC, Canada",49.766667,-119.75,-0.320507198683333,-0.560771292109703,0.763420391093778
713,"Fullerton, CA",33.8708215,-117.9294165,-0.388897039772769,-0.733587689015676,0.55732234387347
714,"Omaha, NE",41.2587317,-95.9378732,-0.0777674509474176,-0.747705973974055,0.659460385509737
715,Phillipines,10.2447856,-61.4561398,0.470213240286596,-0.864446335729181,0.177853988719884
716,"Antioch, CA",38.0049214,-121.805789,-0.415286625885371,-0.669637679032491,0.615729158949552
717,"Long Beach, CA",44.4567705,-78.7359702,0.139422808426785,-0.700029896278083,0.700370919447178
718,"Bath, ME",43.910755,-69.820862,0.248513857943192,-0.676200557381304,0.693537070824196
719,"Birmingham, AL",33.5206824,-86.8024326,0.0465022963146296,-0.832388592940983,0.552237962095324
720,New Zealand,-41.5000831,172.8344077,-0.743105264658131,0.0934226834441536,-0.662621134476907
721,"Online, Phillipines",10.2447856,-61.4561398,0.470213240286596,-0.864446335729181,0.177853988719884
722,"Bala Cynwyd, PA",40.0076125,-75.2340695,0.195220603520177,-0.740663322321253,0.642889383120659
723,"Kinston, NC",35.2626635,-77.5816353,0.175589994043526,-0.797410324051362,0.577325669867621
724,"Tuscon, AZ",32.1975976,-111.0808672,-0.304371233907071,-0.789581432950132,0.532840794900601
725,"Orlando, FL",28.5421097,-81.3790388,0.131679500363135,-0.868540931302363,0.477804520527526
726,"Lincoln, NE",40.8,-96.667821,-0.0878969099653779,-0.751874755195135,0.653420603990105
727,"Canoga Park, CA",34.2010776,-118.5978259,-0.395884121893117,-0.726168404240754,0.562098933209584
728,"Fayetteville, NC",35.0525759,-78.878292,0.157907710647478,-0.803251303094522,0.574327867158668
729,"Phoenix, AZ",33.4485866,-112.0773456,-0.313608591009937,-0.77320172032229,0.551188489843006
730,"Hollis, NY",40.7101715,-73.7666684,0.211903865488331,-0.727797285427505,0.652232982235228
731,"Kuna, ID",43.4918307,-116.4201223,-0.322798794621047,-0.649700931988566,0.688251143961554
732,"Toronto, ON",43.653963,-79.387207,0.133251643358446,-0.711145648976464,0.690301286022355
733,"Los Gatos, CA",37.226611,-121.9746797,-0.42164924544557,-0.675443873123594,0.604968997614737
734,"Berlin, Germany",52.5170365,13.3888599,0.591986339997218,0.140909411697486,0.793534316177798
735,"Savannah, GA",32.0809263,-81.0911768,0.131214827309092,-0.837076989065438,0.531116544151457
736,"Alexandria, MN",45.8846686,-95.377883,-0.0652417419678191,-0.69304082792783,0.717940057337736
737,"Oneonta, NY",42.453492,-75.0629531,0.190180117329548,-0.71289407730952,0.674991524027915
738,AR,-34.9964963,-64.9672817,0.346627341197098,-0.742237845947454,-0.573526343229249
739,"Online, Norway",64.5731537,11.5280364395482,0.420696917071619,0.0858061564398899,0.90313421343865
740,"Prague, Czech Republic",50.0874654,14.4212535,0.621400625050896,0.159794286531044,0.767024803496204
741,"Hong Kong, China",22.2793278,114.1628131,-0.37877298926547,0.844273230816284,0.379122321065291
742,"Eugene, OR",44.0505054,-123.0950506,-0.392446315597764,-0.60212512198128,0.695292188114298
743,"Newark, DE",39.6852191,-75.7508289,0.189419999762531,-0.745888262311882,0.638569310126413
745,"Leeds, England, United Kingdom",53.7974185,-1.5437941,0.590427636623599,-0.0159125044604474,0.80693370118794
746,"Arlington, VA",38.8903961,-77.0841585,0.173976134419141,-0.75865573949934,0.627832599963782
747,"Danville, IL",40.125222,-87.6304614,0.0316135379544313,-0.763983977236418,0.644460291052931
748,"Attleboro, MA",41.9445441,-71.2856082,0.238646374952535,-0.704467619329911,0.668411012055952
749,"Cancun, Quintana Roo, Mexico",21.1214022,-86.8452006350063,0.0513365907931897,-0.931405301415967,0.360345277393732
750,"El Cerrito, CA",33.8410146,-117.52079778812,-0.383789354610633,-0.736599550339181,0.556890324684915
751,"Barcelona, Spain",41.3828939,2.1774322,0.749766722641967,0.0285073808247124,0.661087884367305
752,"Jacksonville, FL",30.3321838,-81.655651,0.125256616290355,-0.853974899942269,0.50501252493783
754,"Winston-Salem, NC",36.0998131,-80.2440518,0.136915681324288,-0.796307010236179,0.589193721670746
755,"Richmond, CA",49.1632727,-123.1376687,-0.357459254903701,-0.547554163893901,0.756576049506024
756,"Simi Valley, CA",34.2694474,-118.781482,-0.397886521897092,-0.72430731284762,0.563085457322506
757,"Malone, NY",44.84881,-74.295044,0.191906689785453,-0.682503167364395,0.705238434115128
758,"Vienna, VA",38.9013729,-77.2651762,0.171551889650003,-0.759084268570006,0.627981705439778
759,"Online, TN",33.8439408,9.400138,0.8194046754691,0.135653592040756,0.556932743503036
761,"Bay City, TX",28.9827565,-95.969402,-0.0909732910924864,-0.870022223536339,0.484546376377624
762,"Tijuana, Online, Mexico",32.5010188,-116.9646629,-0.382423832456562,-0.751694770283533,0.537314604954697
763,"Fort Walton, FL",30.4760308,-86.3110563,0.0554506525757627,-0.860055719152832,0.507177863359026
764,"Boise, ID",43.61656,-116.200835,-0.319647568456257,-0.649585738257083,0.689828819804597
765,"Harrisburg, PA",40.2663107,-76.8861122,0.173126076250773,-0.743148962204658,0.646341226981655
766,Spain,39.3262345,-4.8380649,0.770793994725576,-0.0652411029056322,0.633735130939296
767,"Aylesbury, England, United Kingdom",51.8161412,-0.8130383,0.618124742978821,-0.0087718995927624,0.786031078199139
